Latitude,Longitude,City,Country,Temperature (F),Humidity (%),Cloudiness (%),Wind Speed (mph)
-34.53,20.04,bredasdorp,za,57.2,50,80,10.29
-37.62,-73.65,lebu,cl,52.51,100,92,10.89
71.29,-156.79,barrow,us,37.4,86,90,16.11
59.68,30.67,nikolskoye,ru,57.2,87,90,13.42
42.65,-73.76,albany,au,71.6,53,40,11.41
-46.6,168.33,bluff,nz,51.88,96,24,13.24
69.3,139.9,deputatskiy,ru,43.69,98,76,2.84
42.1,-79.24,jamestown,sh,66.2,55,40,8.05
63.44,-20.27,vestmannaeyjar,is,53.6,71,40,8.05
-21.2,-175.2,vaini,to,71.6,88,90,6.93
51.57,26.57,dubrovytsya,ua,65.2,58,76,18.16
-22.97,-42.03,arraial do cabo,br,71.6,78,75,11.41
-26.65,15.16,luderitz,na,62.6,59,0,32.21
-25.02,46.97,taolanaro,mg,73.4,83,75,4.7
1.74,98.78,sibolga,id,70.06,100,64,0.94
48.55,51.78,inderborskiy,kz,87.7,23,12,7.2
-10.41,-36.43,piacabucu,br,72.67,100,100,12.8
20.32,86.62,paradwip,in,80.41,90,0,4.41
66.15,-65.71,pangnirtung,ca,46.4,81,75,10.29
-3.67,152.43,namatanai,pg,77.98,100,56,6.2
-53.15,-70.92,punta arenas,cl,39.2,100,75,6.93
65.42,-52.9,maniitsoq,gl,44.95,97,0,1.95
73.51,80.55,dikson,ru,39.91,100,92,19.28
-33.65,115.33,busselton,au,55.93,100,8,17.49
-23.12,-134.97,rikitea,pf,69.79,100,0,1.16
38.85,-76.88,forestville,ca,78.8,47,75,4.7
-33.01,17.94,saldanha,za,57.2,54,0,17.22
48.07,-2.98,pontivy,fr,69.8,60,0,12.75
33.23,-82.6,avera,pf,91.4,66,40,4.74
-0.74,-90.35,puerto ayora,ec,77,65,40,16.11
-33.87,121.9,esperance,au,47.74,73,0,9.78
32.67,-17.1,ponta do sol,cv,80.6,57,75,17.22
-42.88,147.33,hobart,au,44.6,75,75,9.17
-38.27,141.97,codrington,ag,49.36,100,56,10.22
57.79,-152.41,kodiak,us,53.6,100,90,8.99
61.35,16.39,bollnas,se,56.56,77,68,5.64
-20.41,57.7,mahebourg,mu,75.2,83,40,9.17
8.55,-0.52,salaga,gh,85.54,76,36,6.42
-33.93,18.42,cape town,za,55.4,62,20,14.99
8.96,117.58,ransang,ph,80.68,97,88,4.07
-13.2,49.05,ambilobe,mg,81.76,40,0,13.35
-18.06,13.84,opuwo,na,86.89,18,0,2.28
5.67,73.0,ugoofaaru,mv,84.82,96,92,13.24
51.59,-3.0,newport,us,68,72,75,11.41
-20.33,-40.29,vila velha,br,71.6,60,75,5.82
60.14,-45.24,nanortalik,gl,42.79,97,92,2.62
-3.84,-62.06,codajas,br,85.81,75,76,3.85
27.5,77.68,mataura,pf,78.79,92,32,2.62
49.76,0.37,fecamp,fr,68,77,0,9.17
-33.02,27.91,east london,za,57.2,62,0,19.46
-34.42,19.23,hermanus,za,52.87,75,44,3.18
22.08,-159.32,kapaa,us,80.6,69,75,20.8
60.38,25.12,mattru,sl,57.2,67,75,13.87
13.22,80.32,kattivakkam,in,84.2,79,75,12.01
-38.55,-58.74,necochea,ar,61.42,94,80,9.33
41.9,12.49,illoqqortoormiut,gl,91.4,31,0,8.05
-45.42,167.72,te anau,nz,43.69,77,64,9.22
54.72,-113.29,athabasca,ca,63.58,87,88,4.74
5.89,95.32,sabang,id,85.09,99,48,12.68
68.75,161.3,cherskiy,ru,46.84,77,44,2.39
26.54,-77.06,marsh harbour,bs,83.92,100,68,11.45
35.73,140.83,hasaki,jp,77,100,40,3.36
77.48,-69.36,qaanaaq,gl,34.96,100,88,3.06
69.38,178.42,leningradskiy,ru,42.52,100,0,23.31
32.77,-97.3,tarudant,ma,84.2,83,90,9.17
-7.38,108.21,kawalu,id,64.75,98,76,1.95
1.17,108.97,pemangkat,id,77.17,94,64,1.61
71.92,114.08,saskylakh,ru,38.92,100,92,12.68
48.01,91.64,hovd,mn,50.62,66,0,5.41
19.73,-155.09,hilo,us,71.6,94,90,4.7
-21.36,55.77,saint-philippe,re,75.2,83,90,2.24
3.07,172.79,butaritari,ki,83.65,100,88,13.69
38.15,-79.07,staunton,us,75.2,46,90,3.36
3.78,72.97,mahibadhoo,mv,83.29,100,48,10.45
61.99,-49.67,paamiut,gl,44.14,91,88,1.72
-12.66,135.82,galiwinku,au,66.37,95,0,4.74
55.5,94.39,stoyba,ru,58.99,97,92,12.68
-24.79,-50.01,castro,cl,70.87,74,12,6.2
63.05,147.19,kadykchan,ru,39.55,86,0,2.62
-21.21,-159.78,avarua,ck,69.8,88,75,3.36
31.61,34.76,gat,ly,84.2,62,0,11.41
65.61,-37.64,tasiilaq,gl,44.6,87,75,2.24
55.74,-97.86,thompson,ca,62.6,45,40,5.82
43.05,-76.15,syracuse,us,69.8,72,75,11.41
-33.59,26.89,port alfred,za,59.89,86,20,20.51
64.5,-165.41,nome,us,42.8,81,90,17.22
66.04,-17.34,husavik,is,48.2,93,90,3.36
11.24,4.91,duku,ng,84.73,91,20,6.53
8.01,-62.4,upata,ve,85.54,73,8,4.85
35.53,-108.74,gallup,us,64.4,72,90,3.36
61.09,6.58,viksoyri,no,60.8,58,0,3.36
54.1,77.66,bagan,ru,68.71,62,0,3.74
70.63,147.92,chokurdakh,ru,54.22,94,92,4.63
33.73,135.98,shingu,jp,84.01,96,12,16.82
22.2,-97.87,anahuac,mx,86,62,40,5.82
51.68,25.87,lyubeshiv,ua,65.74,57,48,17.6
51.38,1.39,margate,za,69.8,46,20,10.29
41.37,-73.41,bethel,us,77,53,20,6.93
-54.8,-68.3,ushuaia,ar,33.8,86,75,5.08
-42.78,147.06,new norfolk,au,44.6,90,75,9.17
41.7,-81.36,mentok,id,66.2,88,90,3.36
10.57,72.64,kavaratti,in,83.74,96,92,15.7
60.55,-151.26,kenai,us,51.8,100,90,6.93
4.93,-52.33,cayenne,gf,91.4,55,40,6.93
52.62,8.8,barentsburg,sj,73.4,68,75,8.05
-34.0,24.73,kruisfontein,za,58.09,80,0,21.3
69.22,-51.1,ilulissat,gl,41,91,75,4.7
6.88,73.1,dhidhdhoo,mv,84.37,98,68,15.48
8.32,77.18,kuzhithurai,in,80.6,78,40,8.05
71.69,128.87,tiksi,ru,38.56,99,44,4.63
-41.87,-73.82,ancud,cl,46.93,74,88,12.46
70.37,31.11,vardo,no,46.4,81,75,13.87
60.75,72.86,sentyabrskiy,ru,74.02,67,20,8.88
62.46,-114.35,yellowknife,ca,68,60,75,3.36
-15.77,128.73,kununurra,au,77,31,0,10.29
25.52,90.22,tura,ru,79.87,93,0,2.39
38.42,-121.42,laguna,br,71.6,68,5,9.17
40.87,-124.08,arcata,us,55.4,100,90,1.28
25.91,89.45,lalmanir hat,bd,81.85,91,12,2.84
29.97,40.21,sakakah,sa,105.8,12,0,4.74
59.76,43.13,imeni babushkina,ru,70.24,59,100,15.14
14.25,32.99,marzuq,ly,97.42,35,36,4.41
39.51,54.37,balkanabat,tm,87.16,14,0,4.18
-2.88,-39.95,itarema,br,90.49,51,0,15.93
56.83,30.15,loknya,ru,60.79,100,92,6.64
37.72,-25.43,vila franca do campo,pt,75.2,69,20,17.22
69.45,-133.04,tuktoyaktuk,ca,48.2,93,90,10.29
-25.4,-70.48,taltal,cl,60.16,80,20,1.5
24.91,67.08,karachi,pk,84.2,79,75,9.17
27.87,-0.29,adrar,dz,109.4,13,40,11.41
0.57,12.86,makokou,ga,81.4,74,92,2.95
-9.88,-56.09,alta floresta,br,96.8,30,0,10.29
-3.8,102.27,bengkulu,id,80.95,100,56,9.1
41.53,-87.42,griffith,au,73.4,49,75,9.17
69.65,18.96,tromso,no,51.8,62,20,13.87
-24.87,113.63,carnarvon,au,67,95,92,13.47
-16.48,-151.75,faanui,pf,77.98,100,0,14.7
-23.42,-54.65,costa rica,br,82.21,63,0,16.49
28.37,129.48,naze,jp,84.73,98,8,7.76
48.43,-123.37,victoria,sc,62.6,77,40,11.41
-30.18,-50.21,cidreira,br,76.54,77,0,7.65
11.0,122.67,dingle,ie,76.27,92,88,2.95
31.67,20.25,suluq,ly,92.92,29,0,13.69
-25.3,45.48,tsihombe,mg,74.92,48,0,10
-22.67,167.48,vao,nc,69.61,100,76,16.82
61.81,51.58,kortkeros,ru,73.4,64,0,2.24
-20.29,57.78,grand river south east,mu,75.2,83,40,9.17
71.97,102.5,khatanga,ru,34.42,80,8,9.66
45.93,133.72,dalnerechensk,ru,59.62,91,76,7.09
-15.37,-75.16,marcona,pe,58.63,100,76,8.32
39.05,-27.98,lagoa,pt,72.94,100,32,12.68
60.75,-137.51,haines junction,ca,31.27,96,48,2.28
35.05,-78.88,fayetteville,us,82.4,83,90,8.05
72.79,-56.15,upernavik,gl,40.36,100,0,5.75
38.75,-9.21,burica,pa,84.2,41,20,13.87
69.71,60.05,belushya guba,ru,47.11,85,64,15.26
37.27,-87.18,morehead,pg,73.4,69,1,4.7
50.63,87.97,ulagan,ru,41.44,80,0,2.06
66.08,-23.12,bolungarvik,is,57.2,78,0,2.24
34.8,32.41,chlorakas,cy,84.2,70,20,13.87
20.88,-156.68,lahaina,us,75.2,73,20,11.41
38.52,-28.7,ribeira grande,pt,78.8,69,75,13.87
60.92,-46.05,narsaq,gl,51.8,66,75,4.7
-5.67,132.75,tual,id,80.14,98,92,16.04
19.37,-81.42,west bay,ky,89.6,70,40,17.22
-19.65,17.33,otavi,na,83.29,16,0,7.43
-2.65,10.0,gamba,ga,82.03,64,92,8.77
-25.24,130.99,yulara,au,55.4,32,0,6.93
49.2,119.7,hailar,cn,49.27,97,92,21.07
-21.37,55.62,saint-joseph,re,75.2,83,90,2.24
12.45,10.04,hadejia,ng,96.97,47,0,6.76
29.03,21.55,jalu,ly,98.14,25,0,8.77
42.97,140.51,iwanai,jp,70.69,100,88,6.98
14.73,-6.12,sokolo,ml,75.46,100,88,4.97
9.16,18.37,kibala,ao,82.4,78,20,11.41
42.83,-108.73,lander,us,75.2,36,1,7.76
37.55,-121.99,fremont,us,66.2,77,90,10.29
7.47,80.04,kuliyapitiya,lk,82.4,78,75,10.29
41.43,128.03,samusu,ws,55.12,81,0,4.85
62.23,-6.59,klaksvik,fo,55.4,76,64,5.82
3.52,39.06,moyale,et,80.95,44,48,11.45
8.48,8.52,lafia,ng,83.92,90,12,6.42
2.67,72.89,kudahuvadhoo,mv,80.14,100,64,6.42
-33.7,-53.46,chuy,uy,75.1,81,12,10.78
-22.28,44.52,ankazoabo,mg,76.63,35,0,7.54
-43.53,172.63,christchurch,nz,32,100,0,1.12
-26.45,31.02,mhlambanyatsi,sz,72.76,13,0,2.51
-5.2,-35.46,touros,br,81.04,81,76,16.82
-0.72,8.78,port-gentil,ga,75.2,94,90,12.75
38.89,-76.51,mayo,ca,78.8,47,75,4.7
17.02,54.09,salalah,om,78.8,94,90,6.93
52.3,-81.62,attawapiskat,ca,55.39,77,0,10.89
65.58,-171.0,lavrentiya,ru,40.54,100,8,17.49
69.31,16.12,andenes,no,51.8,76,0,17.22
-9.8,-139.03,atuona,pf,79.78,100,0,15.82
-2.52,32.9,mwanza,mw,71.32,100,24,2.51
68.22,-135.01,aklavik,ca,53.6,93,75,5.82
35.13,140.3,katsuura,jp,84.2,79,75,3.36
13.32,12.61,diffa,ne,96.52,59,0,6.42
20.52,-13.05,atar,mr,104,16,20,11.41
44.17,52.12,shetpe,kz,90.94,11,0,7.65
28.75,-82.5,florida,cu,89.6,62,40,4.7
-38.0,-57.56,mar del plata,ar,60.8,87,75,10.29
27.32,103.72,zhaotong,cn,61.87,100,92,1.95
-17.8,-63.17,vaitupu,wf,86,48,20,24.16
71.04,27.85,mehamn,no,46.4,81,75,13.87
16.52,-98.75,tecoanapa,mx,72.49,100,92,3.74
36.62,101.77,xining,cn,46.84,100,76,2.62
43.41,-124.22,north bend,us,59,82,90,8.05
37.25,21.67,kiparissia,gr,82.4,54,40,9.17
67.67,12.69,sorland,no,55.4,76,0,10.29
24.93,73.82,nathdwara,in,77.53,86,8,5.19
35.96,10.47,sidi ali,dz,91.4,58,20,17.22
63.75,-68.51,iqaluit,ca,51.8,66,75,12.75
-6.95,106.49,palabuhanratu,id,78.97,99,64,23.09
16.28,95.68,pyapon,mm,78.07,95,48,7.54
18.74,7.39,arlit,ne,100.66,33,0,4.74
70.86,29.09,berlevag,no,46.4,75,75,16.11
26.35,127.87,gushikawa,jp,86,83,1,3.36
60.47,166.1,tilichiki,ru,48.73,93,32,4.41
9.55,-79.65,portobelo,pa,86,74,40,9.17
9.19,117.81,tagusao,ph,80.68,97,88,4.07
0.8,127.4,ternate,id,75.64,100,80,5.19
9.6,8.38,kagoro,ng,78.07,93,20,3.18
25.35,82.47,airai,pw,83.56,81,24,6.53
-17.5,24.27,katima mulilo,na,85.9,17,0,4.41
14.9,-24.5,sao filipe,cv,81.85,93,24,8.1
52.27,79.17,klyuchi,ru,67.18,63,0,6.42
50.68,156.12,severo-kurilsk,ru,52.87,100,92,11.45
61.28,108.01,yerbogachen,ru,45.49,86,64,5.53
9.49,50.81,bandarbeyla,so,76.72,90,0,30.69
8.65,16.85,doba,td,88.96,57,88,6.98
6.8,-58.16,georgetown,sh,89.6,62,40,4.7
6.8,81.48,wattegama,lk,80.77,87,48,7.54
39.61,-119.25,fernley,us,75.2,40,1,2.73
-33.92,25.57,port elizabeth,za,55.4,62,0,20.8
57.05,-135.33,sitka,us,55.4,87,75,6.98
38.88,-99.33,hays,us,73.4,56,1,9.17
8.83,3.75,igboho,ng,81.94,88,48,5.53
30.48,-115.95,san quintin,mx,61.51,88,32,4.74
-5.95,29.19,kalemie,cd,82.57,72,24,3.96
2.82,-60.67,boa vista,br,81.31,86,76,4.74
13.81,-10.83,bafoulabe,ml,84.91,84,44,7.43
-5.95,34.13,mgandu,tz,82.39,31,56,9.66
25.38,82.18,handia,in,83.56,81,24,6.53
6.45,3.4,lagos,ng,80.6,78,75,9.17
46.54,-87.4,marquette,us,62.6,54,5,8.05
37.77,-3.78,jaen,pe,102.2,10,20,6.93
-23.4,21.72,manyana,bw,83.02,10,0,7.65
22.28,113.57,zhuhai,cn,84.2,83,20,9.17
78.22,15.64,longyearbyen,sj,46.4,81,75,3.36
-2.99,-65.11,uarini,br,86.44,81,12,3.96
41.58,-87.5,hammond,us,73.4,49,75,9.17
-34.73,135.87,port lincoln,au,51.97,100,48,3.62
17.49,44.13,najran,sa,95,17,40,9.17
33.08,-16.33,camacha,pt,80.6,78,40,12.75
-17.04,-39.53,itamaraju,br,73.21,82,64,12.8
44.29,-105.5,gillette,us,71.6,53,1,21.92
36.42,54.98,shahrud,ir,72.22,23,0,6.76
60.67,17.14,gavle,se,64.93,68,32,5.08
28.18,78.05,pahasu,in,84.01,85,24,2.95
41.54,-8.62,barcelos,br,66.2,93,75,4.7
7.53,-12.51,bonthe,sl,81.67,82,24,5.19
49.78,-74.85,chapais,ca,50,93,90,10.29
28.23,83.98,pokhara,np,67.45,67,36,1.39
6.3,-10.8,monrovia,lr,80.6,74,75,14.99
64.86,11.24,rorvik,no,55.4,66,40,9.17
63.29,18.72,ornskoldsvik,se,55.4,76,75,3.36
-34.58,150.86,flinders,au,48.2,66,8,9.17
55.1,-105.28,la ronge,ca,62.6,63,40,16.11
58.31,48.35,karaul,ru,77.71,33,12,13.47
-33.3,-66.34,san luis,ar,65.11,28,0,4.63
43.96,-78.17,cobourg,ca,64.4,72,90,9.17
5.35,48.53,hobyo,so,80.32,72,0,18.05
21.23,-86.73,isla mujeres,mx,87.8,62,75,11.41
58.42,94.67,yuzhno-yeniseyskiy,ru,53.32,89,68,6.42
51.07,132.56,novyy urgal,ru,55.84,99,92,3.06
34.64,-120.46,lompoc,us,64.4,87,90,5.82
-6.13,12.37,soyo,ao,81.76,62,0,8.66
22.89,-109.91,cabo san lucas,mx,91.4,62,5,13.87
11.79,7.62,malumfashi,ng,86.71,84,0,4.97
61.69,53.69,ust-kulom,ru,76.9,44,0,6.87
52.9,40.49,michurinsk,ru,69.34,47,36,15.03
50.41,80.23,semey,kz,71.14,45,0,14.03
-9.11,124.89,atambua,id,77.89,88,0,12.24
-20.52,57.52,souillac,mu,75.2,83,40,9.17
25.7,-99.23,china,mx,84.82,68,0,4.74
27.98,-114.06,guerrero negro,mx,66.64,94,48,8.43
68.82,-51.19,qasigiannguit,gl,41,91,75,4.7
55.54,28.64,bairiki,ki,56.11,100,92,24.87
-8.26,-49.26,conceicao do araguaia,br,96.8,25,0,9.17
31.35,27.25,marsa matruh,eg,82.4,58,0,12.75
46.54,138.33,svetlaya,ru,62.59,100,88,11.79
66.94,-53.67,sisimiut,gl,45.04,84,80,2.17
46.62,10.7,lasa,cn,87.8,37,40,5.82
-33.04,-71.63,valparaiso,cl,57.2,66,75,5.82
33.67,-93.59,hope,us,77,65,40,6.93
65.28,-126.83,norman wells,ca,57.2,93,90,11.41
-2.57,150.8,kavieng,pg,80.77,100,44,5.53
-25.28,152.85,hervey bay,au,62.14,100,80,8.99
30.44,61.84,mirabad,af,92.56,7,0,17.27
-23.7,133.88,alice springs,au,46.4,39,0,9.55
27.12,114.98,jian,cn,81.4,78,12,3.96
52.45,64.63,kushmurun,kz,79.69,38,0,5.75
-2.88,108.27,manggar,id,80.05,88,48,8.66
38.09,-102.62,lamar,us,73.4,69,1,8.88
43.65,51.2,aktau,kz,80.6,26,0,8.95
-20.01,57.66,grand gaube,mu,75.2,83,40,9.17
-39.0,175.93,turangi,nz,27.4,100,0,2.73
-5.82,13.45,matadi,cd,86.62,53,44,7.99
-35.72,150.18,batemans bay,au,45.04,100,0,6.87
46.36,-94.2,brainerd,us,62.6,72,75,8.05
-13.7,-76.22,pisco,pe,60.8,93,90,8.05
40.16,-8.33,lata,sb,71.6,64,20,13.87
-14.27,50.17,sambava,mg,76.63,100,0,11.9
52.05,44.35,yekaterinovka,ru,75.28,33,0,12.01
8.0,124.29,marawi,sd,67.99,97,92,1.28
69.75,61.65,amderma,ru,44.41,76,76,13.8
11.92,109.16,cam ranh,vn,80.95,96,8,1.72
34.7,44.97,kifri,iq,104.17,11,0,7.09
-30.03,-70.71,vicuna,cl,57.2,76,90,5.82
40.09,-83.02,worthington,us,71.6,73,40,9.17
43.44,4.94,fos-sur-mer,fr,84.2,51,0,11.41
57.14,-2.1,aberdeen,us,64.4,68,40,5.82
18.22,42.51,abha,sa,73.4,60,40,9.17
49.49,105.92,darhan,mn,43.87,93,56,3.06
13.22,-59.52,bathsheba,bb,87.8,70,40,16.11
14.92,78.02,tadpatri,in,73.39,94,92,3.51
13.21,12.02,maine-soroa,ne,96.16,59,0,6.42
50.1,-91.92,sioux lookout,ca,60.8,41,75,3.36
60.34,102.28,vanavara,ru,45.67,84,80,5.41
34.67,138.95,shimoda,jp,83.56,84,8,19.51
60.45,22.27,sataua,ws,60.8,48,0,9.17
-28.55,16.43,oranjemund,na,56.02,94,0,25.1
30.18,-81.39,palm valley,us,89.6,55,1,4.7
16.35,-86.43,french harbor,hn,89.6,62,40,6.93
69.7,170.31,pevek,ru,46.66,91,32,8.21
-20.23,164.02,poum,nc,73.03,100,0,15.03
-20.26,-42.03,manhuacu,br,67.36,66,44,3.4
26.1,-106.97,guadalupe y calvo,mx,63.58,75,0,2.73
16.89,42.55,jizan,sa,82.4,74,75,3.36
-22.45,18.97,gobabis,na,91.4,6,0,10.29
-13.68,48.45,ambanja,mg,78.8,74,20,2.24
64.38,-173.3,provideniya,ru,45.22,100,12,6.53
21.43,39.83,mecca,sa,98.6,50,75,11.41
-4.35,152.26,kokopo,pg,77.62,100,24,6.2
28.37,121.36,wenling,cn,81.31,100,0,8.77
48.48,124.83,nehe,cn,56.92,79,68,7.43
-46.23,169.75,kaitangata,nz,34.96,69,24,3.18
-32.72,152.15,nelson bay,au,53.6,81,75,18.34
59.38,143.3,okhotsk,ru,52.42,100,48,3.74
7.42,81.82,kalmunai,lk,76.09,99,64,3.18
60.96,34.02,novikovo,ru,66.64,62,68,13.58
-19.06,-169.92,alofi,nu,73.4,88,32,12.75
-0.6,73.08,hithadhoo,mv,83.02,100,24,1.39
-2.02,147.27,lorengau,pg,79.06,100,64,7.54
38.26,-85.6,lyndon,us,73.4,53,1,3.36
66.32,-179.17,egvekinot,ru,42.61,100,92,1.72
18.44,1.41,kidal,ml,92.83,57,0,5.53
66.02,12.63,sandnessjoen,no,55.4,62,20,8.05
-46.13,167.68,tuatapere,nz,50.44,94,80,15.03
-31.95,141.43,broken hill,au,40.99,92,8,7.43
30.41,-88.83,ocean springs,us,87.8,66,1,9.17
-26.68,153.12,kawana waters,au,59.44,100,12,3.62
34.3,48.82,dawlatabad,af,91.4,9,0,3.96
22.6,86.48,ghatsila,in,74.65,97,32,2.39
-12.97,-38.51,salvador,br,82.4,100,40,13.87
-29.47,149.85,moree,au,47.29,56,0,11.56
-8.99,-39.91,curaca,br,79.87,60,56,15.48
53.05,158.65,petropavlovsk-kamchatskiy,ru,53.6,93,75,6.71
45.76,106.27,mandalgovi,mn,47.56,57,0,7.99
43.3,132.47,smolyaninovo,ru,59,100,20,4.29
34.48,41.91,rawah,iq,102.46,16,0,10.78
-4.18,-38.13,beberibe,br,89.6,46,40,20.8
31.33,37.34,umm durman,sd,100.4,14,0,11.41
23.2,81.97,kotma,in,75.28,94,12,2.62
64.96,34.58,kem,ru,58.99,94,92,7.54
14.35,121.02,san pedro,bz,78.8,100,75,6.93
66.56,67.8,aksarka,ru,48.64,98,92,9.66
45.02,-93.22,saint anthony,ca,66.2,63,5,6.93
20.17,85.1,balugaon,in,75.64,99,64,2.39
40.6,-124.16,fortuna,us,55.4,100,90,5.82
46.49,135.88,vostok,ru,55.84,100,92,2.62
46.72,-79.1,temiscaming,ca,59,47,75,13.87
7.45,126.58,baculin,ph,77.17,98,76,3.18
29.97,32.53,suez,eg,92.83,29,0,11.68
-29.34,30.63,faya,td,60.52,43,12,5.19
42.87,-106.31,casper,us,78.8,24,1,21.92
61.36,63.58,sovetskiy,ru,76.54,46,0,5.64
50.77,9.6,solms,de,71.6,49,40,9.17
52.05,39.73,usman,ru,68,42,0,13.42
-20.34,57.76,bambous virieux,mu,75.2,83,75,12.75
43.36,76.86,boralday,kz,60.8,59,40,4.47
4.14,96.13,meulaboh,id,81.22,100,32,5.41
37.1,-113.58,saint george,bm,82.4,34,1,4.7
-11.5,-61.47,rolim de moura,br,81.22,74,80,2.95
64.89,-23.71,olafsvik,is,54.31,93,8,5.64
8.15,123.84,tabiauea,ki,73.48,100,32,4.07
56.95,90.67,bolshoy uluy,ru,57.46,93,0,6.31
-28.77,114.6,geraldton,au,44.6,100,0,8.05
49.41,75.47,karkaralinsk,kz,58.54,72,0,12.68
70.98,25.97,honningsvag,no,46.4,81,75,12.75
-7.95,110.28,bambanglipuro,id,70.69,95,0,3.74
-29.95,-71.34,coquimbo,cl,57.2,76,90,5.82
41.8,-73.12,torrington,us,75.2,53,75,8.05
52.03,4.17,monster,nl,66.2,68,36,10.29
51.15,-100.05,dauphin,ca,60.8,72,1,14.99
45.71,19.67,mali idos,rs,84.2,26,0,4.7
9.31,42.13,harer,et,66.91,93,36,3.62
18.45,-88.92,nicolas bravo,mx,87.8,74,40,14.99
9.28,12.47,jimeta,ng,88.69,68,0,3.74
36.37,30.29,kumluca,tr,81.22,32,12,1.16
33.99,-6.84,rabat,ma,80.6,65,75,6.93
16.27,-0.04,gao,ml,86.71,69,0,4.29
11.82,99.78,prachuap khiri khan,th,77.44,83,68,3.74
-32.25,115.77,kwinana,au,59,62,0,11.41
20.51,-86.95,cozumel,mx,87.8,62,75,11.41
7.34,134.47,meyungs,pw,82.4,78,75,3.36
12.48,-16.55,oussouye,sn,89.6,74,40,9.17
42.78,-9.06,muros,es,71.6,68,40,10.29
67.54,133.38,verkhoyansk,ru,50.71,97,88,4.07
-4.58,-81.27,talara,pe,69.8,73,40,16.11
58.81,-122.7,fort nelson,ca,50,93,75,4.7
-30.52,151.65,armidale,au,30.55,87,8,3.4
55.61,73.5,sargatskoye,ru,72.94,51,0,6.42
41.71,-70.23,yarmouth,ca,80.6,47,1,7.76
22.18,76.07,tokzar,af,73.4,100,75,6.93
-28.78,32.04,richards bay,za,66.91,63,8,12.46
-31.47,19.78,calvinia,za,57.19,47,0,5.64
53.45,108.98,ust-barguzin,ru,48.73,91,80,6.76
-17.88,36.89,quelimane,mz,77,73,0,10.29
45.06,38.68,belozernyy,ru,77,44,0,2.24
22.24,68.97,dwarka,in,80.77,100,100,7.31
69.16,35.15,tumannyy,ru,46.21,100,92,14.25
29.68,109.14,qianjiang,cn,73.75,88,100,2.95
47.67,-52.73,torbay,ca,80.6,61,40,25.28
-26.37,-70.05,diego de almagro,cl,61.24,84,24,3.29
-9.15,-35.53,passo de camaragibe,br,80.6,69,40,17.22
-8.18,112.62,gondanglegi,id,73.39,98,76,6.98
-33.59,22.2,oudtshoorn,za,51.8,71,40,12.75
43.6,73.76,shu,kz,76.09,28,20,13.8
67.67,53.09,naryan-mar,ru,61.42,87,64,6.64
53.07,132.97,ekimchan,ru,50.08,93,88,4.52
7.98,49.82,eyl,so,81.49,65,20,22.08
36.85,-75.98,virginia beach,us,84.2,61,75,11.41
-14.9,50.28,antalaha,mg,75.28,74,0,7.76
40.92,-98.34,grand island,us,75.2,60,1,16.11
7.77,-72.22,san cristobal,ec,84.2,54,40,13.87
55.64,51.82,nizhneyansk,ru,80.6,28,0,8.95
-16.62,-72.71,camana,pe,58.36,100,76,4.29
37.4,136.9,wajima,jp,79.06,95,92,21.52
26.62,-78.28,high rock,bs,75.2,94,90,3.36
51.62,73.11,ereymentau,kz,69.97,49,0,6.31
60.26,37.98,lipin bor,ru,65.56,82,12,19.84
37.89,58.52,annau,tm,89.6,40,0,8.05
49.23,2.89,crepy-en-valois,fr,75.2,56,75,5.82
68.53,146.42,belaya gora,ru,50.89,86,0,2.73
43.75,-81.72,goderich,sl,62.5,90,80,9.55
53.22,-114.99,drayton valley,ca,57.64,94,80,3.51
20.89,-156.47,kahului,us,75.2,73,20,9.17
65.44,52.15,ust-tsilma,ru,72.22,66,68,5.75
-19.55,169.27,isangel,vu,72.94,100,44,16.26
5.66,-53.78,mana,gf,90.94,57,0,2.84
-2.68,111.62,pangkalanbuun,id,75.82,93,76,2.73
9.33,122.86,santa catalina,co,77,94,90,1.72
43.3,52.8,zhanaozen,kz,89.41,10,0,8.1
65.37,64.67,muzhi,ru,63.04,73,92,5.19
39.48,62.91,seydi,tm,80.77,20,0,7.2
-10.17,123.58,kupang,id,77,73,20,11.41
-9.45,-46.3,morros,br,88.69,35,0,15.48
-37.83,140.77,mount gambier,au,40.81,86,64,4.41
60.72,-46.03,qaqortoq,gl,51.8,66,75,4.7
62.55,149.67,yagodnoye,ru,41.62,90,0,2.95
22.62,120.31,xiongshi,cn,80.6,83,40,4.7
29.96,122.3,shenjiamen,cn,82.84,91,0,20.07
55.65,109.32,severobaykalsk,ru,37.48,86,32,3.74
14.2,24.67,kutum,sd,91.21,29,12,10.78
64.99,34.77,solovetskiy,ru,58.99,94,92,7.54
44.35,143.35,mombetsu,jp,63.31,100,100,3.62
45.52,-122.68,portland,au,64.4,59,75,12.75
5.5,120.88,latung,ph,81.85,100,76,9.66
53.39,-2.58,warrington,us,66.2,72,75,8.05
63.61,40.51,samoded,ru,70.69,63,80,13.35
40.8,-124.16,eureka,us,55.4,100,90,1.28
55.31,76.76,chany,ru,72.94,52,0,6.42
28.66,-17.92,los llanos de aridane,es,78.8,78,40,12.75
47.93,-97.03,grand forks,us,66.2,68,1,9.17
51.06,-0.33,horsham,au,69.8,60,40,10.29
-0.32,102.35,japura,br,77.17,86,32,2.17
-9.66,120.26,waingapu,id,70.96,81,0,8.21
27.33,86.0,dzhusaly,kz,65.11,92,24,1.72
-22.47,-68.93,calama,cl,62.6,4,0,2.24
39.25,9.18,quartucciu,it,87.8,62,0,11.41
40.55,34.95,corum,tr,68,60,40,19.46
-33.96,22.46,george,za,51.8,71,40,12.75
25.7,100.18,dali,cn,66.19,86,80,1.72
38.69,35.55,talas,kg,80.6,30,20,8.05
29.29,121.42,ninghai,cn,86,84,0,6.71
63.84,-22.43,grindavik,is,53.6,76,75,4.7
34.93,43.49,bayji,iq,107.32,14,0,10
31.5,75.75,saleaula,ws,74.02,90,56,7.43
-6.98,-34.83,cabedelo,br,84.2,66,75,16.11
-45.87,170.5,dunedin,nz,34.96,81,64,2.62
51.59,4.78,bereda,so,71.6,60,75,12.75
-1.95,18.27,inongo,cd,83.74,68,8,3.74
39.23,106.34,shitanjing,cn,57.28,58,80,2.39
18.8,110.4,wanning,cn,85.72,97,8,10.22
16.58,82.02,amalapuram,in,79.96,91,44,6.64
-8.84,13.23,luanda,ao,77,65,40,11.41
20.93,-17.03,nouadhibou,mr,87.8,62,8,12.75
38.08,138.43,ryotsu,jp,81.31,93,100,27.78
2.05,99.75,bandar,id,70.96,95,56,1.61
-32.5,137.77,port augusta,au,41,93,75,4.7
32.79,-79.86,mount pleasant,us,89.6,66,20,3.96
70.47,-68.59,clyde river,ca,41,80,90,18.34
55.5,38.65,sobolevo,ru,60.8,77,20,11.18
-8.42,20.74,lucapa,ao,87.61,47,8,3.06
-9.44,147.18,port moresby,pg,75.2,83,75,6.93
-1.13,12.47,koulamoutou,ga,80.32,76,32,2.95
44.76,-85.62,traverse city,us,62.6,62,90,8.05
-17.64,-71.34,ilo,pe,58.54,91,48,2.73
10.4,-75.51,cartagena,co,86,79,40,6.93
17.63,-99.08,zitlala,mx,62.95,100,92,2.17
21.12,70.12,mangrol,in,80.32,95,92,11.79
-21.15,55.28,saint-leu,re,75.2,83,90,3.36
-8.14,159.59,buala,sb,79.06,98,100,4.41
-51.62,-69.22,rio gallegos,ar,39.2,80,0,3.36
9.8,38.73,fiche,et,62.5,71,48,4.41
20.66,-74.94,moa,cu,85.72,70,20,2.95
64.18,-51.72,nuuk,gl,53.6,50,20,8.05
61.94,76.66,novoagansk,ru,61.06,100,76,2.28
61.46,23.63,burkhala,ru,57.2,62,0,5.82
43.17,70.47,karatau,kz,75.91,25,0,15.03
51.11,106.26,gusinoye ozero,ru,43.42,78,0,4.18
-33.52,-53.37,santa vitoria do palmar,br,75.1,81,12,10.78
36.12,-97.06,stillwater,us,80.6,69,20,5.82
52.72,58.67,kizilskoye,ru,80.32,36,32,5.08
-31.67,18.5,vredendal,za,61.96,53,32,7.54
34.93,36.73,birin,dz,86.71,35,0,12.46
53.57,142.95,ekhabi,ru,56.47,88,92,10.22
30.99,34.93,yeroham,il,88.51,41,0,11.45
27.91,-15.54,santa lucia,es,80.6,74,20,18.34
37.46,35.82,kozan,tr,87.8,62,20,10.29
52.54,62.49,lisakovsk,kz,79.51,52,0,3.4
40.06,70.82,batken,kg,74.38,33,0,5.41
-29.68,-53.81,santa maria,br,86,45,0,20.8
17.98,-66.11,guayama,us,89.6,70,20,14.99
52.63,126.75,sivaki,ru,56.38,98,92,5.3
-9.17,-60.63,aripuana,br,89.68,58,8,2.95
48.35,-1.2,fougeres,fr,75.2,53,75,6.93
-28.57,-70.76,vallenar,cl,58,71,8,2.06
10.34,-68.74,san felipe,cl,86.89,51,12,4.18
4.96,18.7,damara,cf,77,88,75,4.7
27.83,113.15,zhuzhou,cn,86,70,0,4.47
63.28,118.33,nyurba,ru,49.72,94,56,3.85
57.67,63.07,irbit,ru,74.29,70,0,2.62
14.3,-91.92,champerico,gt,82.4,69,75,3.4
29.42,-98.49,san antonio,hn,87.8,74,40,5.82
51.2,136.67,gorin,ru,56.11,84,92,3.62
-4.28,-55.98,itaituba,br,91.4,59,20,8.05
-12.07,134.27,maningrida,au,76.81,67,0,14.7
46.68,113.28,baruun-urt,mn,52.33,49,8,16.15
-35.33,-72.42,constitucion,mx,51.61,100,92,20.07
68.05,166.44,bilibino,ru,45.04,82,20,2.06
19.22,-104.7,san patricio,mx,86,79,75,11.41
52.23,141.51,lazarev,ru,56.56,100,80,8.77
23.83,84.12,barwadih,in,75.82,97,8,2.95
41.39,-81.44,solon,in,69.8,72,90,8.05
2.33,37.99,marsabit,ke,86.89,32,0,14.58
45.92,-64.38,sackville,ca,75.2,47,75,13.87
65.7,82.47,krasnoselkup,ru,45.67,66,88,5.97
22.68,-3.98,taoudenni,ml,103.99,20,80,7.65
37.78,-121.98,san ramon,us,71.6,77,90,10.29
36.62,-121.92,pacific grove,us,59,100,90,6.93
39.26,65.15,muborak,uz,79.96,26,0,8.99
60.25,24.07,rungata,ki,57.2,67,75,13.87
18.73,-103.68,coahuayana,mx,75.2,88,90,1.05
-0.88,131.25,sorong,id,82.48,100,36,3.18
-17.71,-39.25,caravelas,br,73.48,100,0,16.82
40.43,71.72,komsomolskiy,ru,80.6,42,0,2.24
-6.88,112.21,labuhan,id,83.74,98,0,19.73
52.8,28.0,lyuban,by,54.49,96,92,20.51
5.56,95.32,banda aceh,id,79.6,79,32,3.96
40.47,50.33,artyom,az,78.8,69,0,10.29
-20.32,118.57,port hedland,au,69.8,49,0,8.05
-16.7,-151.02,fare,pf,77.17,100,0,11.79
-22.96,14.51,walvis bay,na,59,67,0,8.05
25.26,55.3,karamea,nz,96.8,47,0,11.41
41.76,86.15,korla,cn,63.85,57,88,3.62
42.87,-97.4,yankton,us,66.2,77,1,10.29
26.18,127.67,tomigusuku,jp,86,83,1,3.36
66.84,32.36,zelenoborskiy,ru,49.72,100,92,9.44
30.65,-91.16,zachary,us,86,66,1,8.05
38.7,-9.42,cascais,pt,84.2,64,20,11.41
39.76,-105.22,golden,ca,77,33,1,3.36
63.05,179.32,beringovskiy,ru,46.03,100,12,3.96
6.3,36.88,kuche,cn,68.44,94,20,1.72
9.97,98.63,ranong,th,76.63,100,92,14.14
6.75,11.82,banyo,cm,70.96,100,48,2.17
59.12,159.97,palana,ru,50.71,87,24,1.83
26.56,31.75,akhmim,eg,95.62,27,12,13.47
-43.3,-65.1,rawson,ar,58.09,58,24,20.62
14.92,-23.51,praia,cv,84.1,89,88,3.96
-23.5,-58.83,pozo colorado,py,89.14,49,0,18.5
64.43,76.5,gubkinskiy,ru,49.81,99,100,6.98
8.68,-8.63,beyla,gn,80.77,78,12,8.66
-13.31,35.24,lichinga,mz,77,36,20,10.29
5.41,100.34,george town,ky,86,84,75,3.62
44.08,-80.2,shelburne,ca,64.4,72,90,5.82
2.93,11.98,sangmelima,cm,76.18,81,76,2.95
5.38,-52.95,sinnamary,gf,85.27,87,0,7.65
-8.01,-34.86,olinda,br,82.4,69,40,16.11
58.31,82.91,kolpashevo,ru,63.94,93,92,8.21
32.68,109.02,ankang,cn,70.06,75,0,2.51
62.8,43.25,rochegda,ru,72.31,61,44,12.01
53.01,60.57,lokomotivnyy,ru,80.5,44,32,3.85
6.36,126.18,pundaguitan,ph,81.49,100,64,3.74
-8.76,-35.1,tamandare,br,78.07,92,92,8.77
22.57,59.53,sur,om,86.89,85,0,15.7
36.24,-90.06,kennett,us,78.8,44,5,9.17
58.36,82.83,togur,ru,63.94,93,92,8.21
7.04,134.26,kloulklubed,pw,82.4,78,75,3.36
55.75,38.0,zheleznodorozhnyy,ru,60.8,77,20,11.18
65.32,21.48,pitea,se,50,87,90,3.36
6.12,81.12,hambantota,lk,80.14,100,80,14.58
48.4,-89.32,thunder bay,ca,60.8,55,20,4.7
-1.77,-55.87,oriximina,br,91.3,53,0,5.3
-18.51,-54.76,coxim,br,89.59,38,0,13.24
43.32,145.57,nemuro,jp,65.29,91,92,13.91
51.55,-9.27,skibbereen,ie,60.8,77,75,14.99
66.83,70.83,yar-sale,ru,49,100,92,10.67
-30.55,29.42,umzimvubu,za,59.26,22,0,3.85
-6.14,-77.1,soritor,pe,73.03,68,0,3.18
-9.08,143.21,daru,pg,76.45,92,8,13.69
-8.47,140.33,merauke,id,75.64,88,0,16.26
-22.21,-49.66,garca,br,78.8,57,0,6.93
37.03,37.99,birecik,tr,91.4,36,0,9.17
56.34,114.88,taksimo,ru,42.07,81,32,2.17
58.3,-134.42,juneau,us,51.8,100,90,5.82
56.79,49.62,mari-turek,ru,78.97,31,48,15.26
-23.13,-64.33,san ramon de la nueva oran,ar,82.84,29,0,2.95
70.03,20.97,skjervoy,no,49.99,95,24,11.01
28.59,112.33,yiyang,cn,78.79,94,80,3.62
-30.74,30.45,port shepstone,za,66.91,71,32,18.72
-7.42,30.6,kirando,tz,84.19,56,0,8.99
61.94,5.11,raudeberg,no,62.6,55,20,6.93
-14.97,22.68,kalabo,zm,86.71,21,0,5.75
24.2,83.03,barawe,so,74.11,97,44,2.73
50.17,12.13,selb,de,77,53,20,10.29
54.77,-101.86,flin flon,ca,62.6,72,40,10.29
19.77,-104.37,autlan,mx,71.95,77,24,2.39
9.93,13.95,guider,cm,80.86,93,20,5.08
-17.73,-149.15,tautira,pf,68,68,20,4.7
64.75,177.48,anadyr,ru,49.09,100,44,9.78
24.69,46.72,riyadh,sa,104,11,75,11.41
60.9,131.96,amga,ru,57.1,88,92,2.73
-4.83,122.72,katobu,id,78.52,90,44,7.99
-34.3,-57.23,nueva helvecia,uy,68,94,75,9.17
19.62,76.7,jintur,in,77.17,85,48,7.76
10.49,-75.13,repelon,co,87.8,74,40,8.05
-26.58,18.13,keetmanshoop,na,73.4,13,0,8.05
51.03,-4.22,northam,au,68,60,40,6.93
60.72,-135.05,whitehorse,ca,42.8,100,75,2.06
4.25,-54.38,grand-santi,gf,87.52,68,0,2.95
51.44,5.48,eindhoven,nl,73.4,64,40,8.05
63.79,74.52,muravlenko,ru,55.57,100,44,8.77
10.7,37.07,bure,et,61.96,91,92,2.17
-20.73,139.5,mount isa,au,62.6,25,0,10.29
-21.64,-41.05,sao joao da barra,br,71.6,56,90,11.41
51.28,-80.63,moose factory,ca,57.2,71,40,10.29
14.28,121.42,santa cruz,cr,78.8,100,75,6.93
18.69,12.92,bilma,ne,106.06,15,0,13.02
61.15,149.63,ust-omchug,ru,39.64,89,48,2.39
37.22,67.28,termiz,uz,87.8,27,0,4.7
0.13,117.5,bontang,id,80.32,100,12,6.98
20.7,-105.2,ixtapa,mx,84.2,83,90,3.36
51.1,114.53,aginskoye,ru,51.61,68,20,19.73
54.43,113.6,bagdarin,ru,43.51,70,12,5.86
48.8,-79.2,la sarre,ca,51.79,89,24,11.01
-11.55,20.78,lumeje,ao,90.04,15,0,7.87
35.39,116.09,juye,cn,78.34,72,0,6.64
22.29,-84.28,mantua,cu,86.35,80,24,3.62
64.25,-15.21,hofn,is,55.4,99,20,5.82
61.05,43.9,ileza,ru,73.39,54,64,15.26
17.02,-25.06,porto novo,cv,81.58,93,20,6.2
28.82,79.03,rawannawi,ki,82.66,89,20,3.62
41.36,-87.44,cedar lake,us,73.4,49,75,9.17
58.97,-3.3,stromness,gb,62.6,77,20,11.41
-34.65,-58.62,moron,mn,69.8,88,75,2.24
-41.07,145.92,burnie,au,50.17,100,44,12.24
-14.41,-56.45,diamantino,br,90.49,42,0,10
41.24,28.06,buyukcavuslu,tr,75.2,47,0,17.22
7.24,16.44,paoua,cf,84.01,54,92,6.42
-0.95,100.35,padang,id,81.31,100,80,4.29
46.43,26.4,asau,tv,73.4,40,0,8.05
55.63,22.93,kelme,lt,64.4,48,0,20.8
-21.15,-175.22,hihifo,to,71.6,88,90,6.93
69.2,33.45,polyarnyy,ru,46.4,87,75,8.95
50.76,59.54,dombarovskiy,ru,82.48,33,0,4.74
68.05,39.51,ostrovnoy,ru,49.72,100,92,8.66
43.23,-79.95,hamilton,bm,66.2,68,75,3.36
64.84,-147.72,fairbanks,us,53.6,87,75,6.93
12.07,-1.34,kombissiri,bf,82.4,83,40,2.24
40.28,97.2,yumen,cn,66.46,28,8,17.83
-14.56,30.81,viligili,mv,90.94,20,0,3.74
-15.23,-59.34,pontes e lacerda,br,91.66,48,8,7.2
69.49,88.4,talnakh,ru,38.56,98,88,8.21
1.49,124.85,manado,id,73.4,100,40,2.24
66.42,112.4,udachnyy,ru,38.38,86,12,3.74
62.57,11.38,roros,no,53.6,50,20,9.17
-45.58,-72.07,coihaique,cl,42.8,77,90,6.93
16.35,-93.53,cristobal obregon,mx,77,83,90,2.24
21.44,-157.84,ahuimanu,us,77,83,90,12.24
55.41,42.53,kulebaki,ru,69.61,51,36,8.99
64.86,-147.8,college,us,53.6,87,75,6.93
22.93,97.75,lashio,mm,73.75,100,92,2.28
-17.62,27.34,binga,cd,81.49,41,0,2.73
47.9,9.9,bad wurzach,de,80.6,57,0,6.93
-16.54,28.71,siavonga,zm,83.47,32,0,2.95
34.98,139.87,tateyama,jp,84.2,79,75,3.36
3.25,19.77,gemena,cd,72.58,93,68,2.84
18.4,-77.1,ocho rios,jm,89.6,70,20,21.92
44.77,65.55,tasbuget,kz,80.6,26,0,6.71
18.62,84.23,tekkali,in,77.08,100,64,2.06
10.37,79.85,vedaranniyam,in,85.18,100,36,12.57
-13.28,-50.16,sao miguel do araguaia,br,81.04,74,0,16.49
38.88,40.49,bingol,tr,84.64,19,0,4.63
-19.8,-174.35,pangai,to,74.47,100,24,26.55
26.18,127.76,nishihara,jp,86,83,1,3.36
9.23,-78.02,ailigandi,pa,81.22,86,20,4.52
20.45,121.97,basco,ph,84.91,100,44,10
5.95,80.54,matara,lk,80.14,92,92,10.67
-10.22,-37.42,nossa senhora da gloria,br,72.22,100,92,10.89
57.07,93.44,bolshaya murta,ru,56.92,93,92,7.99
54.95,20.23,pionerskiy,ru,64.4,59,20,8.95
33.34,44.4,baghdad,iq,104,17,0,12.75
40.8,-96.67,lincoln,nz,73.4,60,20,13.87
50.7,-127.42,port hardy,ca,55.4,93,75,2.24
61.67,96.37,baykit,ru,41.26,89,36,9.22
-12.12,-73.0,pangoa,pe,69.16,93,80,1.61
29.85,-90.11,estelle,us,84.2,89,90,6.93
14.53,20.92,biltine,td,100.12,29,24,8.1
68.56,14.91,stokmarknes,no,57.2,54,20,6.93
17.88,-76.41,morant bay,jm,89.6,70,20,21.92
42.35,-3.7,burgos,es,87.8,32,20,17.22
59.43,62.35,gari,ru,73.66,62,0,3.51
4.88,-1.76,takoradi,gh,78.07,88,12,12.24
-9.86,124.28,soe,id,69.7,63,0,3.74
58.2,7.9,strai,no,60.8,82,75,9.17
44.02,-88.54,oshkosh,us,64.4,55,5,10.29
46.47,10.37,oga,jp,68,37,40,5.82
58.31,112.9,gorno-chuyskiy,ru,44.05,96,92,3.74
60.42,134.53,ust-maya,ru,59.35,65,80,6.87
50.2,-66.38,sept-iles,ca,62.6,67,75,14.99
-22.28,166.46,noumea,nc,59,77,0,2.24
14.46,-4.92,tenenkou,ml,72.85,100,92,9.44
10.63,-71.64,maracaibo,ve,91.4,63,75,5.82
40.13,63.45,gazli,uz,82.57,17,0,7.31
-27.37,29.88,volksrust,za,65.38,10,0,8.21
-31.41,-64.18,cordoba,ar,66.2,37,0,5.82
-10.54,32.08,chinsali,zm,81.94,17,0,8.43
50.47,-4.72,bodmin,gb,62.6,67,20,8.05
28.5,-13.86,puerto del rosario,es,78.8,83,0,8.05
55.57,28.2,disna,by,55.57,98,92,23.64
-14.28,-39.0,itacare,br,75.2,73,75,12.75
-35.17,173.17,ahipara,nz,51.61,100,32,11.01
21.32,-158.01,ewa beach,us,77,83,90,12.24
43.8,87.6,urumqi,cn,71.6,35,0,2.84
61.95,159.23,evensk,ru,47.38,100,80,1.95
-23.53,148.17,emerald,au,62.14,32,0,13.8
-1.83,-44.87,cururupu,br,89.41,62,0,11.68
-15.82,-50.61,itapirapua,br,88.42,36,0,13.02
-41.41,175.52,waipawa,nz,53.6,76,0,17.22
51.71,-0.04,cheshunt,gb,69.8,56,20,11.41
29.46,-95.05,dickinson,us,89.6,59,20,6.93
46.68,-73.92,saint-michel-des-saints,ca,55.12,76,8,7.2
53.57,52.8,asekeyevo,ru,85.99,21,80,10.45
67.63,134.63,batagay,ru,52.06,98,88,2.95
31.61,65.71,qandahar,af,80.6,14,1,8.05
0.64,33.17,buwenge,ug,75.37,75,24,9.78
47.75,38.03,mys shmidta,ru,74.74,31,0,9.78
21.35,-158.09,makakilo city,us,77,83,90,12.24
56.23,162.48,ust-kamchatsk,ru,52.96,93,68,7.31
40.67,31.58,bolu,tr,66.46,51,0,3.62
11.67,92.75,port blair,in,79.69,100,88,17.83
5.48,-53.2,iracoubo,gf,88.87,63,0,3.4
38.93,100.45,zhangye,cn,62.23,76,92,2.73
-3.08,34.15,kisesa,tz,72.04,73,20,5.19
-8.47,118.72,bima,id,71.86,100,0,2.84
19.65,-90.67,seybaplaya,mx,86,79,40,9.17
21.48,109.1,beihai,cn,83.29,92,20,13.8
21.83,76.33,khandwa,in,76.81,91,36,6.87
4.64,103.44,paka,my,78.8,94,64,2.95
-3.1,-60.03,manaus,br,91.4,59,75,8.05
66.77,123.37,zhigansk,ru,50.53,86,36,5.19
-30.32,149.78,narrabri,au,41.26,83,0,7.09
5.79,0.9,anloga,gh,80.6,74,40,14.99
18.5,-69.99,santo domingo,ec,89.6,62,75,2.73
49.63,14.05,milin,cz,78.8,50,0,10.29
-11.52,-37.51,indiaroba,br,72.04,98,100,13.02
45.32,-118.09,la grande,us,68,59,20,2.73
20.85,85.1,angul,in,75.19,98,80,0.94
65.97,29.18,kuusamo,fi,46.4,93,90,5.82
-22.35,16.13,otjimbingwe,na,70.33,62,0,4.52
32.31,54.02,ardakan,ir,93.2,6,0,6.93
46.72,-92.46,cloquet,us,64.4,72,40,5.82
44.45,1.44,cahors,fr,89.6,38,0,5.82
-35.35,150.47,ulladulla,au,48.2,66,8,9.17
4.38,-7.72,harper,lr,76.18,100,100,11.9
38.96,-122.63,clearlake,us,64.4,63,1,4.18
46.87,42.06,orlovskiy,ru,72.22,68,64,4.97
-3.28,-39.27,trairi,br,78.52,100,8,22.41
63.73,8.83,sistranda,no,57.2,58,40,11.41
-3.7,128.18,ambon,id,75.2,100,75,3.36
45.41,79.92,sarkand,kz,67.09,57,92,2.95
-2.72,17.68,nioki,cd,86.62,61,8,2.95
14.8,74.13,karwar,in,71.59,100,92,1.28
12.52,-70.03,oranjestad,aw,86,79,20,19.46
-28.87,153.57,ballina,au,58.63,100,0,12.01
59.16,35.33,chagda,ru,62.59,66,64,13.02
58.48,41.53,buy,ru,67.18,67,0,13.47
16.51,-14.65,ndioum,sn,87.8,66,75,2.24
42.98,144.37,kushiro,jp,67.54,99,92,8.99
60.48,15.43,borlange,se,62.6,59,0,5.82
6.35,116.43,kota belud,my,78.8,83,75,5.82
-15.31,134.97,ngukurr,au,61.42,68,0,2.62
37.35,59.61,kaka,tm,68.26,34,0,2.95
-2.89,-40.12,acarau,br,90.49,51,0,15.93
54.67,20.13,svetlyy,ru,64.4,59,20,8.95
56.97,21.96,kuldiga,lv,62.6,72,0,8.05
0.33,-79.47,rosa zarate,ec,77.98,93,24,3.51
52.16,82.22,shipunovo,ru,65.11,63,0,9.44
56.45,138.17,ayan,ru,54.49,100,92,7.99
33.59,-102.38,levelland,us,75.2,73,75,6.76
21.46,-71.14,cockburn town,bs,83.29,100,8,12.35
37.36,-79.29,forest,ca,77,53,90,5.82
-25.17,45.05,beloha,mg,71.95,54,0,12.68
40.56,65.69,nurota,uz,82.4,14,0,4.7
36.3,139.8,oyama,jp,77,94,20,2.24
8.12,123.92,bacolod,ph,78.61,100,32,5.53
-10.45,161.92,kirakira,sb,80.41,100,76,9.44
27.97,73.55,napasar,in,84.82,73,32,3.29
10.48,16.71,bousso,td,93.46,48,56,6.87
37.0,43.25,bargal,so,90.22,13,0,2.17
50.37,103.29,zakamensk,ru,35.05,77,0,3.96
-36.72,-73.12,talcahuano,cl,50,87,90,3.36
1.03,10.65,acurenam,gq,77.62,78,88,3.4
